{"type":"FeatureCollection","features":[{"type":"Feature","properties":{"marker-color":"#00ccff","marker-size":"medium","marker-symbol":"library","libName":"Gonzalez Hall (Main Library)","libBreak":"No","libSite":"https://www.mainlib.upd.edu.ph","libHr":"8:00 AM - 5:00 PM","libHrs":"8:00 AM - 12:00 AM","discAmenities":"6 tables, 2 whiteboards, shelves","disAReservation":" N/A, Inquire at Internet counter in Electronic Resources room. Tables are given at a first come first serve basis","discMax":" ","discMin":"3 students","discMaxRes":"2 hours, can be extended"},"geometry":{"type":"Point","coordinates":[121.0710686445236,14.655013233746182]}},{"type":"Feature","properties":{"marker-color":"#00ccff","marker-size":"medium","marker-symbol":"library","libName":"School of Urban and Regional Planning Library (2/F SURP Building)","libBreak":"No","libSite":"http://upsurplibrary.wixsite.com/upsurplib","libHr":"8:00 AM - 5:00 PM","libHrs":"8:00 AM - 5:00 PM"},"geometry":{"type":"Point","coordinates":[121.06285572052002,14.656969815723352]}},{"type":"Feature","properties":{"marker-color":"#00ccff","marker-size":"medium","marker-symbol":"library","libName":"Technology Management Center Library","libBreak":"No","libSite":"https://www.facebook.com/updtmclibrary/","libHr":"8:30 AM - 4:00 PM","libHrs":"12:00 PM - 6:30 PM"},"geometry":{"type":"Point","coordinates":[121.07188940048218,14.64726458233539]}},{"type":"Feature","properties":{"marker-color":"#00ccff","marker-size":"medium","marker-symbol":"library","libName":"School of Statistics Library","libBreak":"No","libSite":"Email: library.upstatistics2012@gmail.com","libHr":"8:00 AM - 5:00 PM","libHrs":"8:00 AM - 7:00 PM","discMax":""},"geometry":{"type":"Point","coordinates":[121.06717944145203,14.651151917254618]}},{"type":"Feature","properties":{"marker-color":"#00ccff","marker-size":"medium","marker-symbol":"library","libName":"College of Social Work and Community Development Library","libBreak":"No","libSite":"http://cswcd.upd.edu.ph/?page_id=19","libHr":"8:00 AM - 6:00 PM","libHrs":"8:00 AM - 6:00 PM"},"geometry":{"type":"Point","coordinates":[121.06378376483917,14.65706323299341]}},{"type":"Feature","properties":{"marker-color":"#00ccff","marker-size":"medium","marker-symbol":"library","libName":"Population Institute Library (3/F Palma Hall)","libBreak":"No","libSite":"https://www.facebook.com/popilib/","libHr":"Closed","libHrs":"1:00 PM - 5:00 PM"},"geometry":{"type":"Point","coordinates":[121.0689926147461,14.653279801694602]}},{"type":"Feature","properties":{"marker-color":"#00ccff","marker-size":"medium","marker-symbol":"library","libName":"CSSP Reading Room","libBreak":"No","libSite":"https://www.facebook.com/cssptwsclibrary","libHr":"Closed","libHrs":"1:00 PM - 5:00 PM"},"geometry":{"type":"Point","coordinates":[121.06987774372101,14.653477019206173]}},{"type":"Feature","properties":{"marker-color":"#00ccff","marker-size":"medium","marker-symbol":"library","libName":"College of Social Sciences and Philosophy Library (1/F Gonzales Hall)","libBreak":"No","libSite":"Email: gbtabiendo@up.edu.ph","libHr":"8:00 AM - 5:00 PM","libHrs":"8:00 AM - 5:00 PM"},"geometry":{"type":"Point","coordinates":[121.07105255126953,14.654660320548064]}},{"type":"Feature","properties":{"marker-color":"#00ccff","marker-size":"medium","marker-symbol":"library","libName":"National Institute of Physics Library","libBreak":"Yes","libSite":"https://www.facebook.com/niplib/","libHr":"Closed","libHrs":"8:30 AM - 5:00 PM"},"geometry":{"type":"Point","coordinates":[121.07304811477661,14.649174523193887]}},{"type":"Feature","properties":{"marker-color":"#00ccff","marker-size":"medium","marker-symbol":"library","libName":"National Institute of Molecular Biology and Biotechnology Library","libBreak":"Yes","libSite":"https://www.facebook.com/nimbblibrary/","libHr":"Closed","libHrs":"8:30 AM - 5:00 PM"},"geometry":{"type":"Point","coordinates":[121.07164263725281,14.650731527884544]}},{"type":"Feature","properties":{"marker-color":"#00ccff","marker-size":"medium","marker-symbol":"library","libName":"National Institute of Geological Sciences Library","libBreak":"No","libSite":"https://www.facebook.com/nigslibrary/","libHr":"Closed","libHrs":"8:00 AM - 5:00 PM"},"geometry":{"type":"Point","coordinates":[121.0694593191147,14.648001572355827]}},{"type":"Feature","properties":{"marker-color":"#00ccff","marker-size":"medium","marker-symbol":"library","libName":"Institute of Mathematics Library (1/F MB Annex)","libBreak":"Yes","libSite":"https://www.facebook.com/mathlib/","libHr":"Closed","libHrs":"8:30 AM - 5:00 PM"},"geometry":{"type":"Point","coordinates":[121.07195913791658,14.648582858511409]}},{"type":"Feature","properties":{"marker-color":"#00ccff","marker-size":"medium","marker-symbol":"library","libName":"Institute of Environmental Science and Meteorology Library","libBreak":"Yes","libSite":"https://www.facebook.com/upiesmlibrary/","libHr":"Closed","libHrs":"8:30 AM - 5:00 PM"},"geometry":{"type":"Point","coordinates":[121.07024788856506,14.648146894039229]}},{"type":"Feature","properties":{"marker-color":"#00ccff","marker-size":"medium","marker-symbol":"library","libName":"Institute of Chemistry Library (1/F IC Teaching Building)","libBreak":"Yes","libSite":"https://www.facebook.com/iclibupd/","libHr":"Closed","libHrs":"9:00 - 5:00 PM (Closed on Mondays)"},"geometry":{"type":"Point","coordinates":[121.07314467430115,14.650212527549957]}},{"type":"Feature","properties":{"marker-color":"#00ccff","marker-size":"medium","marker-symbol":"library","libName":"Institute of Biology Library","libBreak":"Yes","libSite":"https://www.facebook.com/IBLibrary6/","libHr":"Closed","libHrs":"8:00 AM - 5:00 PM (Closed on Mondays)"},"geometry":{"type":"Point","coordinates":[121.0707575082779,14.650549877907237]}},{"type":"Feature","properties":{"marker-color":"#00ccff","marker-size":"medium","marker-symbol":"library","libName":"College of Science Library","libBreak":"No","libSite":"http://www.cslib.upd.edu.ph/","libHr":"8:00 AM - 5:00 PM","libHrs":"7:00 AM - 6:00 PM","discAmenities":"4 discussion rooms","disAReservation":"Call  981-8500 local 3811 and look for Mr. Alfredo Bambalan or email Full Name, Student Number, College/Institute, Number of Users and Purpose at discussionroomreservation@gmail.com","discMax":"8 students (per room)","discMin":"4 students (per room)","discMaxRes":"2 hours, can be extended"},"geometry":{"type":"Point","coordinates":[121.06943786144257,14.649210853429356]}},{"type":"Feature","properties":{"marker-color":"#00ccff","marker-size":"medium","marker-symbol":"library","libName":"NCPAG Library (1st & 2nd Floors)","libBreak":"Yes","libSite":"http://libncpag.wixsite.com/home","libHr":"8:00 AM - 5:00 PM","libHrs":"9:00 AM - 6:00 PM","discAmenities":"For NCPAG faculty/lecturers, staffs and students only: 2 discussion rooms","disAReservation":" N/A, Register at the Discussion Room Reservation Sheet ","discMax":"6 students","discMin":" ","discMaxRes":"2 hours"},"geometry":{"type":"Point","coordinates":[121.06045246124268,14.656476779471424]}},{"type":"Feature","properties":{"marker-color":"#00ccff","marker-size":"medium","marker-symbol":"library","libName":"College of Music Library","libBreak":"Yes","libSite":"http://music.upd.edu.ph/library.html","libHr":"Closed","libHrs":"8:00 AM - 5:00 PM"},"geometry":{"type":"Point","coordinates":[121.06543600559235,14.657083992381338]}},{"type":"Feature","properties":{"marker-color":"#00ccff","marker-size":"medium","marker-symbol":"library","libName":"CMC Library (G/F Left Wing, CMC Annex Building)","libBreak":"No","libSite":"http://www.facebook.com/UP-College-of-Mass-Communication-Library-669092463182805","libHr":"9:00 AM - 2:00 PM","libHrs":"8:00 AM - 6:00 PM"},"geometry":{"type":"Point","coordinates":[121.06445431709288,14.656871208561729]}},{"type":"Feature","properties":{"marker-color":"#00ccff","marker-size":"medium","marker-symbol":"library","libName":"Marine Science Institute Library (1/F MSI Building)","libBreak":"No","libSite":"http://www.msi.upd.edu.ph/~msilibrary/","libHr":"Closed","libHrs":"8:00 AM - 6:00 PM"},"geometry":{"type":"Point","coordinates":[121.06897652149202,14.650591397915317]}},{"type":"Feature","properties":{"marker-color":"#00ccff","marker-size":"medium","marker-symbol":"library","libName":"SLIS Library (3/F Gonzalez Hall)","libBreak":"No","libSite":"http://slis.upd.edu.ph/library/","libHr":"8:00 AM - 5:00 PM","libHrs":"8:00 AM - 5:00 PM"},"geometry":{"type":"Point","coordinates":[121.07131004333495,14.655033993328379]}},{"type":"Feature","properties":{"marker-color":"#00ccff","marker-size":"medium","marker-symbol":"library","libName":"College of Law Library (3/F Malcolm Hall)","libBreak":"No","libSite":"http://lawlib.upd.edu.ph/","libHr":"8:00 AM - 7:00 PM","libHrs":"7:30 AM - 9:00 PM"},"geometry":{"type":"Point","coordinates":[121.07210397720335,14.65675703179283]}},{"type":"Feature","properties":{"marker-color":"#00ccff","marker-size":"medium","marker-symbol":"library","libName":"School of Labor and Industrial Relations Library","libBreak":"No","libSite":"http://solair.upd.edu.ph/library.html","libHr":"8:00 AM - 6:00 PM","libHrs":"8:00 AM - 6:30 PM (Closed on Mondays)"},"geometry":{"type":"Point","coordinates":[121.06165409088135,14.657281206468625]}},{"type":"Feature","properties":{"marker-color":"#00ccff","marker-size":"medium","marker-symbol":"library","libName":"Institute of Islamic Studies Library","libBreak":"No","libSite":"http://iis.upd.edu.ph/?page_id=128","libHr":"Closed","libHrs":"8:00 AM - 5:00 PM"},"geometry":{"type":"Point","coordinates":[121.07334315776825,14.657239687728161]}},{"type":"Feature","properties":{"marker-color":"#00ccff","marker-size":"medium","marker-symbol":"library","libName":"College of Human Kinetics Library","libBreak":"Yes","libSite":"http://chklib.wix.com/upchklibrary","libHr":"Closed","libHrs":"8:00 AM - 5:00 PM"},"geometry":{"type":"Point","coordinates":[121.06287449598312,14.659300045729326]}},{"type":"Feature","properties":{"marker-color":"#00ccff","marker-size":"medium","marker-symbol":"library","libName":"College of Home Economics Library","libBreak":"No","libSite":"http://updchelib.wix.com/chelib","libHr":"9:00 AM - 1:00 PM","libHrs":"8:00 AM - 6:00 PM"},"geometry":{"type":"Point","coordinates":[121.07325464487076,14.652145797558475]}},{"type":"Feature","properties":{"marker-color":"#00ccff","marker-size":"medium","marker-symbol":"library","libName":"College of Fine Arts Library","libBreak":"Yes","libSite":"https://www.facebook.com/cfalib","libHr":"Closed","libHrs":"8:00 AM - 5:00 PM"},"geometry":{"type":"Point","coordinates":[121.0616433620453,14.65260510886531]}},{"type":"Feature","properties":{"marker-color":"#00ccff","marker-size":"medium","marker-symbol":"library","libName":"College of Engineering Library II","libBreak":"No","libSite":"http://www.engglib.upd.edu.ph/","libHr":"10:00 AM - 3:00 PM","libHrs":"8:00 AM - 7:00 PM","discAmenities":"whiteboards, TLC Multimedia Room for Faculty, TLC Discussion Room for students, 4 ERG Discussion Rooms for students","disAReservation":"http://www.engglib.upd.edu.ph/index.php/facilities-services/library-facilities/discussion-rooms","discMax":"10 for ERG, 20 for TLC","discMin":"2 for ERG, 10 for TLC","discMaxRes":"2 hours "},"geometry":{"type":"Point","coordinates":[121.06855273246765,14.648645139079502]}},{"type":"Feature","properties":{"marker-symbol":"library","marker-size":"medium","marker-color":"#00ccff","libName":"College of Engineering Library I","libBreak":"No","libSite":"http://www.engglib.upd.edu.ph/","libHr":"10:00 AM - 3:00 PM","libHrs":"8:00 AM - 7:00 PM","discAmenities":"whiteboards, 4 tables for undergraduates, 2 tables for graduate students, 1 conference room for faculty","disAReservation":"http://www.engglib.upd.edu.ph/index.php/facilities-services/library-facilities/discussion-rooms","discMax":"8 students","discMin":"3 students","discMaxRes":"2 hours, can be extended"},"geometry":{"type":"Point","coordinates":[121.06963634490967,14.65654424765565]}},{"type":"Feature","properties":{"marker-color":"#00ccff","marker-size":"medium","marker-symbol":"library","libName":"College of Education Library","libBreak":"No","libSite":"http://lib.educ.upd.edu.ph/","libHr":"8:00 AM - 5:30 PM","libHrs":"8:00 AM - 6:30 PM (5:30 PM on Mondays)"},"geometry":{"type":"Point","coordinates":[121.0721468925476,14.653586007754852]}},{"type":"Feature","properties":{"marker-color":"#00ccff","marker-size":"medium","marker-symbol":"library","libName":"School of Economics Library","libBreak":"No","libSite":"http://www.econ.upd.edu.ph/library/","libHr":"Closed","libHrs":"8:00 AM - 5:00 PM"},"geometry":{"type":"Point","coordinates":[121.07329487800598,14.656263995062039]}},{"type":"Feature","properties":{"marker-color":"#00ccff","marker-size":"medium","marker-symbol":"library","libName":"UP College of Business Administration Library","libBreak":"No","libSite":"http://updcbalib.wix.com/home","libHr":"Closed","libHrs":"8:00 AM - 7:00 PM (5:00 PM on Mondays)"},"geometry":{"type":"Point","coordinates":[121.07346653938293,14.655226019370362]}},{"type":"Feature","properties":{"marker-color":"#00ccff","marker-size":"medium","marker-symbol":"library","libName":"Asian Institute of Tourism Library","libBreak":"No","libSite":"http://ait.upd.edu.ph/index.php?option=com_content&view=article&id=8&Itemid=9","libHr":"8:00 AM - 5:00 PM","libHrs":"8:00 AM - 5:00 PM"},"geometry":{"type":"Point","coordinates":[121.07034444808961,14.658921190422557]}},{"type":"Feature","properties":{"marker-color":"#00ccff","marker-size":"medium","marker-symbol":"library","libName":"Asian Center Library","libBreak":"No","libSite":"http://ac.upd.edu.ph/index.php/faculty-and-staff/library","libHr":"8:00 AM - 6:00 PM","libHrs":"8:00 AM - 6:00 PM"},"geometry":{"type":"Point","coordinates":[121.07366502285004,14.657130700997005]}},{"type":"Feature","properties":{"marker-color":"#00ccff","marker-size":"medium","marker-symbol":"library","libName":"College of Arts and Letters Library","libBreak":"No","libSite":"http://lib.kal.upd.edu.ph/","libHr":"8:00 AM - 5:00 PM","libHrs":"8:00 AM - 5:00 PM"},"geometry":{"type":"Point","coordinates":[121.06743156909941,14.65257396914613]}},{"type":"Feature","properties":{"marker-color":"#00ccff","marker-size":"medium","marker-symbol":"library","libName":"College of Architecture","libBreak":"No","libSite":"Email: ldmanaay@up.edu.ph","libHr":"8:00 AM - 5:00 PM","libHrs":"8:00 AM - 5:00 PM"},"geometry":{"type":"Point","coordinates":[121.0649800300598,14.65153078599605]}},{"type":"Feature","properties":{"marker-color":"#00ccff","marker-size":"medium","marker-symbol":"library","libName":"Archeological Studies Program Library","libBreak":"Yes","libSite":"https://www.facebook.com/asplib","libHr":"Closed","libHrs":"8:00 AM - 5:00 PM"},"geometry":{"type":"Point","coordinates":[121.06297373771669,14.652714097847651]}}]}